[
  {
    "id": 1,
    "name": "John Doe",
    "role": "Producer",
    "location": "Los Angeles, USA",
    "lat": 34.0522,
    "lng": -118.2437,
    "image": "/images/john-doe.jpg",
    "bio": "Grammy-nominated producer specializing in hip-hop & R&B.",
    "portfolio": "https://soundcloud.com/johndoe",
    "contact": "johndoe@gmail.com"
  },
  {
    "id": 2,
    "name": "Studio Tokyo",
    "role": "Studio",
    "location": "Tokyo, Japan",
    "lat": 35.6895,
    "lng": 139.6917,
    "image": "/images/studio-tokyo.jpg",
    "bio": "State-of-the-art recording studio in Shibuya.",
    "portfolio": "https://studiotokyo.com",
    "contact": "booking@studiotokyo.com"
  },
  {
    "id": 3,
    "name": "Lisa Beats",
    "role": "Producer",
    "location": "Chicago, USA",
    "lat": 41.8781,
    "lng": -87.6298,
    "image": "https://source.unsplash.com/random/800x400?producer",
    "bio": "Multi-platinum producer with a knack for trap drums.",
    "portfolio": "https://lisabeats.example.com",
    "contact": "contact@lisabeats.com"
  },
  {
    "id": 4,
    "name": "VisualMaster",
    "role": "Videographer",
    "location": "Berlin, Germany",
    "lat": 52.52,
    "lng": 13.405,
    "image": "https://source.unsplash.com/random/800x400?videographer",
    "bio": "Award-winning videographer capturing stories worldwide.",
    "portfolio": "https://visualmaster.example.com",
    "contact": "info@visualmaster.io"
  },
  {
    "id": 5,
    "name": "Mika Tanaka",
    "role": "Artist",
    "location": "Osaka, Japan",
    "lat": 34.6937,
    "lng": 135.5023,
    "image": "https://source.unsplash.com/random/800x400?artist",
    "bio": "Genre-bending singer blending J-pop with R&B.",
    "portfolio": "https://mika.example.jp",
    "contact": "booking@mika.jp"
  },
  {
    "id": 6,
    "name": "MixMag Studios",
    "role": "Studio",
    "location": "London, UK",
    "lat": 51.5074,
    "lng": -0.1278,
    "image": "https://source.unsplash.com/random/800x400?studio",
    "bio": "Boutique studio focused on analog warmth and vintage gear.",
    "portfolio": "https://mixmagstudios.co.uk",
    "contact": "hello@mixmagstudios.co.uk"
  },
  {
    "id": 7,
    "name": "Beat Lab",
    "role": "Producer",
    "location": "New York, USA",
    "lat": 40.7128,
    "lng": -74.006,
    "image": "https://source.unsplash.com/random/800x400?music",
    "bio": "Underground producer known for experimental sounds.",
    "portfolio": "https://beatlab.example.com",
    "contact": "beatlab@music.com"
  },
  {
    "id": 8,
    "name": "FilmCraft",
    "role": "Videographer",
    "location": "Vancouver, Canada",
    "lat": 49.2827,
    "lng": -123.1207,
    "image": "https://source.unsplash.com/random/800x400?film",
    "bio": "Documentary specialist bringing stories to life.",
    "portfolio": "https://filmcraft.ca",
    "contact": "hello@filmcraft.ca"
  }
]
